City,Lat,Lng,Max Temp,Humidity,Cloudiness,Wind Speed,Country,Date
Vammala,61.33,22.9,36.0,93,90,10.29,FI,1607308852
Rikitea,-23.12,-134.97,76.89,79,0,14.41,PF,1607308853
Riyadh,24.69,46.72,51.8,66,0,9.17,SA,1607308853
Cape Town,-33.93,18.42,64.99,87,0,12.75,ZA,1607308782
Carauari,-4.88,-66.9,73.58,90,99,1.95,BR,1607308853
Cabo San Lucas,22.89,-109.91,68.0,72,5,0.45,MX,1607308625
Ushuaia,-54.8,-68.3,50.0,53,75,5.82,AR,1607308853
Sinnamary,5.38,-52.95,78.1,87,78,8.66,GF,1607308853
Saskylakh,71.92,114.08,-9.49,89,100,5.68,RU,1607308853
Punta Arenas,-53.15,-70.92,59.0,67,100,16.11,CL,1607308853
Slušovice,49.25,17.8,48.0,70,20,4.7,CZ,1607308853
Avarua,-21.21,-159.78,82.4,78,94,13.87,CK,1607308854
New Norfolk,-42.78,147.06,60.01,64,96,4.0,AU,1607308568
Chokurdakh,70.63,147.92,-20.81,87,99,3.49,RU,1607308623
Port Alfred,-33.59,26.89,69.03,90,100,25.43,ZA,1607308854
Ribeira Grande,38.52,-28.7,60.28,64,93,4.23,PT,1607308854
Hithadhoo,-0.6,73.08,82.24,79,38,16.49,MV,1607308854
Constitución,-35.33,-72.42,52.39,90,66,4.74,CL,1607308556
Bantry,51.68,-9.45,37.4,100,75,11.41,IE,1607308854
Busselton,-33.65,115.33,79.0,30,0,4.5,AU,1607308854
Arraial do Cabo,-22.97,-42.03,75.2,100,75,11.41,BR,1607308854
Qaanaaq,77.48,-69.36,-0.89,73,99,3.36,GL,1607308855
Antofagasta,-23.65,-70.4,62.6,72,75,8.05,CL,1607308749
Cayenne,4.93,-52.33,75.2,100,0,8.03,GF,1607308638
Thompson,55.74,-97.86,19.4,92,90,4.7,CA,1607308855
Mataura,-46.19,168.86,68.02,39,81,11.3,NZ,1607308855
Severo-Kuril'sk,50.68,156.12,28.04,89,100,8.72,RU,1607308855
Whitehorse,60.72,-135.05,28.4,92,20,17.22,CA,1607308602
Norman Wells,65.28,-126.83,1.4,84,90,2.24,CA,1607308855
Hong Kong,22.29,114.16,71.01,60,0,1.01,HK,1607308648
Kapaa,22.08,-159.32,80.6,69,75,4.7,US,1607308855
Vaini,-21.2,-175.2,84.2,79,75,10.29,TO,1607308855
Nanortalik,60.14,-45.24,29.46,93,28,5.84,GL,1607308855
Upernavik,72.79,-56.15,21.96,97,100,3.8,GL,1607308856
Luyang,27.62,110.1,44.82,78,99,4.88,CN,1607308856
Naples,40.83,14.25,48.2,87,40,3.36,IT,1607308856
Alofi,-19.06,-169.92,84.2,74,75,14.99,NU,1607308856
Leningradskiy,69.38,178.42,13.41,89,97,1.52,RU,1607308856
Tiksi,71.69,128.87,-13.72,89,100,2.84,RU,1607308856
Hilo,19.73,-155.09,80.6,65,40,6.93,US,1607308731
Katobu,-4.94,122.53,91.08,55,100,2.71,ID,1607308856
Kaeo,-35.1,173.78,77.0,71,91,11.01,NZ,1607308856
Øksfjord,70.24,22.35,28.4,85,75,8.05,NO,1607308857
Ayorou,14.73,0.92,75.78,20,93,6.35,NE,1607308857
Castro,-24.79,-50.01,60.03,97,99,6.96,BR,1607308678
Kaitangata,-46.28,169.85,66.31,44,36,5.61,NZ,1607308857
Kimbe,-5.55,150.14,89.15,57,99,5.91,PG,1607308857
Batagay-Alyta,67.8,130.41,-33.61,76,0,1.14,RU,1607308857
Mundo Nuevo (Ojo de Agua),18.7,-95.5,70.11,85,100,25.39,MX,1607308857
Bredasdorp,-34.53,20.04,64.4,88,100,16.11,ZA,1607308857
Longyearbyen,78.22,15.64,24.8,85,90,28.86,SJ,1607308857
Caucayá,-0.19,-74.78,73.2,97,100,2.64,CO,1607308858
Hobart,-42.88,147.33,60.8,38,75,13.87,AU,1607308739
Padang,-0.95,100.35,85.26,59,100,2.71,ID,1607308604
Antalaha,-14.9,50.28,73.83,80,55,5.35,MG,1607308858
Dumas,35.87,-101.97,42.8,45,1,2.66,US,1607308858
Dalbandin,28.89,64.41,59.88,43,0,3.58,PK,1607308858
Jacobina,-11.18,-40.52,68.13,77,0,4.38,BR,1607308858
Cukai,4.25,103.42,82.4,78,20,11.41,MY,1607308858
Biak,-0.91,122.88,85.24,67,100,2.15,ID,1607308858
Aguazul,5.17,-72.55,72.86,82,58,2.62,CO,1607308575
Itoman,26.12,127.67,73.4,83,75,12.75,JP,1607308859
Port Elizabeth,-33.92,25.57,66.2,93,90,17.22,ZA,1607308859
Muros,42.78,-9.06,54.0,82,100,3.0,ES,1607308859
Saint George,37.1,-113.58,46.0,20,1,3.36,US,1607308823
Pampa,35.54,-100.96,42.8,48,1,4.7,US,1607308602
Kamaishi,39.27,141.88,44.6,87,75,4.7,JP,1607308859
Inhambane,-23.86,35.38,73.67,81,76,7.23,MZ,1607308859
Cidreira,-30.18,-50.21,65.93,88,93,18.95,BR,1607308572
Mar del Plata,-38.0,-57.56,62.01,72,0,6.93,AR,1607308859
Chiredzi,-21.05,31.67,64.29,93,100,5.77,ZW,1607308859
Grindavik,63.84,-22.43,37.4,100,90,13.87,IS,1607308859
Salinópolis,-0.61,-47.36,80.15,81,63,11.18,BR,1607308860
Yellowknife,62.46,-114.35,15.8,92,90,4.7,CA,1607308860
Tāndā,26.55,82.65,69.13,46,0,1.95,IN,1607308860
Singaraja,-8.11,115.09,84.34,71,96,12.57,ID,1607308860
Klaksvík,62.23,-6.59,33.8,86,40,6.93,FO,1607308860
Tasiilaq,65.61,-37.64,26.6,58,98,14.99,GL,1607308860
Caravelas,-17.71,-39.25,74.23,84,92,6.31,BR,1607308860
Kawalu,-7.38,108.21,75.51,85,99,1.74,ID,1607308860
Rognan,67.1,15.39,39.2,64,75,12.75,NO,1607308860
Port-Gentil,-0.72,8.78,78.93,83,100,6.46,GA,1607308682
Olafsvik,64.89,-23.71,32.68,96,100,13.24,IS,1607308861
Flinders,-34.58,150.86,82.99,35,0,8.99,AU,1607308861
Albany,42.6,-73.97,30.0,57,7,3.0,US,1607308810
Tuktoyaktuk,69.45,-133.04,-2.2,77,75,8.05,CA,1607308861
Dikson,73.51,80.55,-6.36,93,55,9.98,RU,1607308861
Bengkulu,-3.8,102.27,83.57,68,27,6.06,ID,1607308637
Puerto Ayora,-0.74,-90.35,72.0,91,78,1.01,EC,1607308861
Ancud,-41.87,-73.82,53.6,87,0,2.24,CL,1607308861
Nikolskoye,59.7,30.79,28.4,54,0,8.95,RU,1607308625
Jamestown,42.1,-79.24,28.0,79,90,5.82,US,1607308861
Merauke,-8.47,140.33,87.84,64,56,8.95,ID,1607308861
Kerema,-7.96,145.78,83.71,66,100,3.69,PG,1607308862
Bambous Virieux,-20.34,57.76,78.01,88,75,5.82,MU,1607308862
Camacha,33.08,-16.33,60.8,67,40,10.29,PT,1607308647
Dingle,11.0,122.67,84.34,78,100,5.53,PH,1607308862
Batemans Bay,-35.72,150.18,78.01,41,0,14.0,AU,1607308862
Seybaplaya,19.65,-90.67,75.07,88,24,2.57,MX,1607308862
Itupiranga,-5.13,-49.33,75.24,90,100,2.35,BR,1607308862
Itarema,-2.92,-39.92,79.5,81,100,12.77,BR,1607308862
Atuona,-9.8,-139.03,78.82,76,6,17.76,PF,1607308862
Tura,25.52,90.22,70.52,66,0,0.98,IN,1607308689
Sørland,67.67,12.69,37.89,81,82,9.86,NO,1607308863
Sakakah,29.97,40.21,46.4,87,0,5.82,SA,1607308863
Brezno,48.8,19.64,50.0,61,75,9.17,SK,1607308863
Kahului,20.89,-156.47,86.0,51,75,10.29,US,1607308650
Benbrook,32.67,-97.46,51.01,57,1,6.93,US,1607308617
Cabedelo,-6.98,-34.83,78.8,83,40,6.93,BR,1607308733
Hambantota,6.12,81.12,77.0,100,40,2.24,LK,1607308863
La Rioja,42.25,-2.5,42.01,93,75,4.7,ES,1607308864
Lysyye Gory,51.55,44.84,10.49,93,0,3.65,RU,1607308864
Bluff,-46.6,168.33,60.69,60,21,16.98,NZ,1607308864
Rocha,-34.48,-54.33,50.81,89,0,3.69,UY,1607308646
Henties Bay,-22.12,14.28,61.0,86,13,1.83,NA,1607308864
Palmer,42.16,-72.33,30.0,63,20,13.87,US,1607308864
Ribeira Brava,32.65,-17.07,57.99,82,20,5.82,PT,1607308864
Akureyri,65.68,-18.09,17.6,85,0,4.27,IS,1607308864
Yima,34.74,111.88,48.0,99,37,9.51,CN,1607308864
Masuda,34.67,131.85,53.6,66,40,5.82,JP,1607308864
Hasaki,35.73,140.83,59.0,66,20,4.7,JP,1607308586
Carnarvon,-24.87,113.63,86.0,42,0,13.87,AU,1607308865
Taltal,-25.4,-70.48,60.13,74,23,3.27,CL,1607308865
Pevek,69.7,170.31,4.33,93,98,2.48,RU,1607308865
Airai,-8.93,125.41,75.51,71,100,2.51,TL,1607308865
Chui,-33.7,-53.46,55.15,76,2,3.87,UY,1607308865
Hanmer Springs,-42.52,172.82,72.99,40,53,17.65,NZ,1607308865
Te Anau,-45.42,167.72,62.38,48,18,10.94,NZ,1607308653
Chifeng,42.27,118.96,11.08,83,0,12.95,CN,1607308866
Władysławowo,54.79,18.4,39.0,77,90,18.34,PL,1607308866
Mana,5.66,-53.78,77.97,87,99,8.66,GF,1607308866
Peniche,39.36,-9.38,57.99,88,55,11.99,PT,1607308866
Kandry,54.57,54.12,7.59,89,66,6.22,RU,1607308866
Batagay,67.63,134.63,-31.95,77,0,2.19,RU,1607308866
Provideniya,64.38,-173.3,17.6,72,20,15.66,RU,1607308866
Manzhouli,49.6,117.43,9.1,85,0,17.31,CN,1607308866
Nemuro,43.32,145.57,41.0,56,75,9.17,JP,1607308866
Hailar,49.2,119.7,8.53,87,0,15.84,CN,1607308866
Butaritari,3.07,172.79,80.83,79,11,13.65,KI,1607308866
Saint-Philippe,-21.36,55.77,75.2,73,20,6.93,RE,1607308867
Dali,25.7,100.18,53.56,55,9,2.64,CN,1607308867
Hammerfest,70.66,23.68,28.4,86,40,17.22,NO,1607308749
Barrow,71.29,-156.79,-0.4,77,20,11.41,US,1607308867
Hermanus,-34.42,19.23,66.0,85,99,8.99,ZA,1607308867
Meulaboh,4.14,96.13,82.81,70,100,2.3,ID,1607308867
Portland,45.52,-122.68,46.0,81,90,6.93,US,1607308631
Paita,-5.09,-81.11,68.2,82,100,11.03,PE,1607308867
Khatanga,71.97,102.5,-19.68,88,74,3.65,RU,1607308867
Gilgit,35.92,74.31,42.51,56,100,1.32,PK,1607308868
Fortuna,40.6,-124.16,50.0,91,49,1.01,US,1607308868
Jingdezhen,29.29,117.21,57.15,65,34,3.56,CN,1607308868
San Patricio,28.02,-97.52,55.0,71,1,6.93,US,1607308643
Sola,-13.88,167.55,81.77,72,28,4.23,VU,1607308868
Tevaitoa,-16.78,-151.5,81.36,71,100,9.73,PF,1607308868
Bell Ville,-32.63,-62.69,63.0,58,38,1.99,AR,1607308868
Stratoni,40.51,23.82,55.99,80,100,21.0,GR,1607308868
Garoowe,8.41,48.48,68.9,81,0,6.13,SO,1607308868
Kibakwe,-6.72,36.37,62.6,88,1,3.18,TZ,1607308868
Kamenka,51.32,42.77,12.9,93,0,7.43,RU,1607308868
Uvalde,29.37,-99.77,53.6,40,1,6.93,US,1607308869
Margate,51.38,1.39,39.99,87,100,4.0,GB,1607308648
Trogir,43.51,16.25,51.8,93,100,3.36,HR,1607308869
Beasain,43.05,-2.2,44.01,89,100,4.65,ES,1607308869
Bodden Town,19.28,-81.25,77.0,94,0,5.5,KY,1607308869
Kovdor,67.57,30.48,35.42,97,100,7.27,RU,1607308869
Yulara,-25.24,130.99,86.0,15,63,11.41,AU,1607308869
Kruisfontein,-34.0,24.73,66.99,93,100,8.01,ZA,1607308869
San Borja,-14.82,-66.85,68.99,88,68,3.13,BO,1607308869
Manaus,-3.1,-60.02,78.8,88,40,4.7,BR,1607308869
East London,-33.02,27.91,70.52,90,100,17.49,ZA,1607308699
Faanui,-16.48,-151.75,80.55,72,92,8.5,PF,1607308870
Torbay,47.67,-52.73,50.0,100,90,12.75,CA,1607308870
São João da Barra,-21.64,-41.05,75.29,88,100,14.45,BR,1607308870
Qasigiannguit,68.82,-51.19,21.2,53,99,18.34,GL,1607308870
Marsá Maţrūḩ,31.35,27.25,59.0,41,0,9.17,EG,1607308628
Belyy Yar,53.6,91.39,-4.0,83,20,2.24,RU,1607308870
Lima,-12.04,-77.03,66.2,82,75,11.41,PE,1607308870
Bubaque,11.28,-15.83,81.03,59,0,8.43,GW,1607308870
Saint-Pierre,-21.34,55.48,75.2,73,20,6.93,RE,1607308870
North Bend,43.41,-124.22,46.99,100,1,3.36,US,1607308870
Hamilton,39.18,-84.53,37.0,75,66,1.01,US,1607308871
Petropavlovsk-Kamchatskiy,53.05,158.65,12.2,78,40,6.71,RU,1607308636
Codrington,-38.27,141.97,56.7,62,23,21.7,AU,1607308871
Jalu,29.03,21.55,59.95,73,95,15.12,LY,1607308871
Whitianga,-36.83,175.7,70.83,61,97,10.0,NZ,1607308871
Sept-Îles,50.2,-66.38,27.0,92,100,18.34,CA,1607308871
Haines Junction,60.75,-137.51,12.2,92,93,2.24,CA,1607308871
Asău,46.43,26.4,30.0,13,100,5.23,RO,1607308871
Aswān,24.09,32.91,59.38,33,0,3.8,EG,1607308871
Esmeraldas,-19.76,-44.31,71.6,94,75,6.93,BR,1607308871
Saint Paul Harbor,57.79,-152.41,42.8,87,90,19.46,US,1607308871
Barrhead,55.8,-4.39,30.99,92,90,2.24,GB,1607308871
Shaunavon,49.65,-108.42,28.4,63,0,12.75,CA,1607308872
Road Town,18.42,-64.62,75.0,99,99,1.01,VG,1607308872
Samarai,-10.62,150.67,85.66,71,75,12.17,PG,1607308872
Labuhan,-6.88,112.21,82.04,82,100,19.46,ID,1607308872
Yar-Sale,66.83,70.83,27.97,95,69,22.41,RU,1607308872
South Lake Tahoe,38.93,-119.98,37.4,51,1,6.93,US,1607308763
Laguna,38.42,-121.42,51.8,61,1,3.51,US,1607308872
Nantucket,41.28,-70.1,35.6,59,1,19.46,US,1607308872
Emerald,-23.53,148.17,99.0,30,2,10.29,AU,1607308872
Port Hawkesbury,45.62,-61.35,41.0,86,90,6.93,CA,1607308872
Poum,-20.23,164.02,80.67,75,37,12.44,NC,1607308873
Morant Bay,17.88,-76.41,80.6,78,20,10.29,JM,1607308873
Barma,8.35,-11.33,72.3,94,69,0.51,SL,1607308873
Lagoa,39.05,-27.98,60.64,71,94,8.63,PT,1607308638
Iqaluit,63.75,-68.51,14.0,72,90,6.93,CA,1607308873
Grand Forks,47.94,-97.43,23.0,100,1,2.86,US,1607308873
Kurchum,48.57,83.65,8.98,81,0,1.05,KZ,1607308873
Brownwood,31.71,-98.99,37.4,64,1,4.54,US,1607308606
Storforshei,66.4,14.52,27.0,98,93,3.49,NO,1607308873
Lavrentiya,65.58,-171.0,15.15,93,6,10.42,RU,1607308874
Dongsheng,39.82,109.98,8.71,83,0,4.16,CN,1607308874
George Town,5.41,100.34,82.4,78,20,8.05,MY,1607308874
Pisco,-13.7,-76.22,64.4,88,0,16.11,PE,1607308651
Aklavik,68.22,-135.01,-2.2,84,100,1.12,CA,1607308655
Grand Gaube,-20.01,57.66,78.01,79,3,4.0,MU,1607308874
Tahe,52.33,124.73,10.42,82,3,6.06,CN,1607308874
Joshīmath,30.57,79.57,51.66,34,14,3.65,IN,1607308874
Pitimbu,-7.47,-34.81,78.8,83,40,6.93,BR,1607308874
Verkhnevilyuysk,63.45,120.32,-11.18,89,94,5.93,RU,1607308874
Bonavista,48.65,-53.11,45.0,100,100,6.93,CA,1607308874
Lompoc,34.64,-120.46,52.0,87,75,4.7,US,1607308875
Mezen',65.85,44.24,35.31,97,100,7.02,RU,1607308875
Seymchan,62.88,152.43,-10.17,89,100,0.85,RU,1607308875
Mujiayingzi,42.12,118.78,9.72,83,0,10.4,CN,1607308875
San Quintín,30.48,-115.95,59.09,63,0,8.77,MX,1607308875
Gillette,44.29,-105.5,42.01,32,1,6.93,US,1607308875
Mount Isa,-20.73,139.5,96.8,18,40,12.75,AU,1607308875
Salalah,17.02,54.09,71.6,83,20,2.24,OM,1607308875
Pangody,65.85,74.49,24.69,96,87,21.45,RU,1607308875
La Ronge,55.1,-105.28,28.4,68,15,2.24,CA,1607308875
Rørvik,64.86,11.24,41.09,74,100,9.13,NO,1607308875
Camopi,3.17,-52.32,72.37,95,72,2.44,GF,1607308876
Marabu,4.41,114.01,87.8,74,20,6.93,MY,1607308720
Bokoro,12.38,17.06,73.9,20,88,7.76,TD,1607308876
Kirakira,-10.45,161.92,83.39,74,97,4.16,SB,1607308876
Clyde River,70.47,-68.59,3.2,91,40,11.41,CA,1607308876
Alice Springs,-23.7,133.88,82.99,28,75,8.05,AU,1607308876
San Juan,-31.54,-68.54,76.62,31,14,3.49,AR,1607308876
Mogadishu,2.04,45.34,78.82,76,0,9.82,SO,1607308876
Spirit River,55.78,-118.84,42.8,70,100,6.93,CA,1607308876
Heishan,41.69,122.11,21.78,71,0,8.61,CN,1607308876
Borzya,50.38,116.52,8.24,88,7,14.43,RU,1607308876
Nabire,-3.37,135.48,84.65,75,62,4.18,ID,1607308877
Krasnyy Kut,50.95,46.97,8.02,93,0,5.3,RU,1607308877
Cherskiy,68.75,161.3,-0.62,93,100,0.96,RU,1607308877
San Felipe,10.34,-68.74,72.84,93,50,2.04,VE,1607308877
Srednekolymsk,67.45,153.68,-23.17,87,100,2.04,RU,1607308877
Mpanda,-6.37,31.04,63.34,92,0,1.25,TZ,1607308877
Koulamoutou,-1.13,12.47,68.88,95,99,1.63,GA,1607308877
Hidalgotitlán,17.78,-94.63,68.04,93,100,4.09,MX,1607308877
Tokonou,9.65,-9.78,68.09,94,7,4.85,GN,1607308877
Vao,-22.67,167.48,77.49,86,20,18.32,NC,1607308651
Lüderitz,-26.65,15.16,57.81,85,0,11.41,NA,1607308878
Venado Tuerto,-33.75,-61.97,60.01,50,82,1.99,AR,1607308878
Naurskaya,43.65,45.31,32.0,85,90,17.9,RU,1607308878
Acarí,-15.43,-74.62,69.84,64,100,3.09,PE,1607308878
São Filipe,14.9,-24.5,75.61,74,92,12.57,CV,1607308878
Hofn,64.25,-15.21,34.63,87,100,9.71,IS,1607308878
Ostrovnoy,68.05,39.51,27.86,96,100,3.58,RU,1607308878
Mahibadhoo,3.78,72.97,82.09,78,98,9.26,MV,1607308878
Beloha,-25.17,45.05,72.14,87,33,11.39,MG,1607308878
Tazovsky,67.47,78.7,17.87,98,98,7.49,RU,1607308878
Qaqortoq,60.72,-46.03,28.4,58,0,12.75,GL,1607308878
Kavieng,-2.57,150.8,85.59,68,1,11.83,PG,1607308878
Mahébourg,-20.41,57.7,77.0,88,75,5.82,MU,1607308630
Seminole,28.71,-81.21,64.4,63,90,3.36,US,1607308871
Domoni,-12.26,44.53,78.87,74,60,5.12,KM,1607308879
Turukhansk,65.82,87.98,10.38,96,100,12.53,RU,1607308879
Baní,18.28,-70.33,73.49,84,15,9.31,DO,1607308879
Bucksport,44.57,-68.8,28.0,84,56,11.01,US,1607308879
Cabras,39.93,8.53,49.19,81,90,2.33,IT,1607308879
Dakar,14.69,-17.44,77.0,69,0,16.11,SN,1607308879
Kiomboi,-4.27,34.37,64.36,79,51,1.61,TZ,1607308879
Prince George,53.92,-122.75,42.8,86,90,19.46,CA,1607308828
Namatanai,-3.67,152.43,85.42,70,38,10.69,PG,1607308879
Ballina,-28.87,153.57,87.8,61,100,11.41,AU,1607308880
Waingapu,-9.66,120.26,85.87,68,98,10.02,ID,1607308880
Planadas,3.2,-75.65,64.71,75,100,5.32,CO,1607308880
Prainha,-1.8,-53.48,75.7,86,85,2.73,BR,1607308880
Kayes,14.0,-11.0,73.17,34,0,5.37,ML,1607308880
Kaz,52.91,87.31,8.69,93,96,1.95,RU,1607308880
Santa Ana,33.75,-117.87,60.8,59,20,2.01,US,1607308880
Mayumba,-3.43,10.66,76.55,90,94,6.73,GA,1607308880
Skjervøy,70.03,20.97,31.39,90,16,11.12,NO,1607308880
Mitsamiouli,-11.38,43.28,80.83,72,13,9.24,KM,1607308880
Sitka,57.05,-135.33,48.2,76,75,20.8,US,1607308728
Hinundayan,10.35,125.25,83.35,74,100,3.4,PH,1607308881
Takoradze,4.88,-1.76,78.6,83,0,6.67,GH,1607308881
Puerto Escondido,15.85,-97.07,78.8,74,40,3.36,MX,1607308881
Irbeyskoye,55.64,95.45,17.19,92,100,13.06,RU,1607308881
Olinda,-8.01,-34.86,78.8,65,40,8.05,BR,1607308881
Niceville,30.52,-86.48,57.2,76,90,4.7,US,1607308849
Kjøllefjord,70.95,27.35,29.21,91,92,5.39,NO,1607308881
Havøysund,71.0,24.66,28.4,86,40,17.22,NO,1607308881
Saint-Augustin,51.23,-58.65,34.41,92,100,21.68,CA,1607308881
Maragogi,-9.01,-35.22,75.36,81,41,7.49,BR,1607308882
Osakarovka,50.56,72.57,-2.54,88,0,2.13,KZ,1607308882
Cotia,-23.67,-46.95,68.0,88,90,8.05,BR,1607308882
Tokmak,47.25,35.71,22.44,83,0,19.39,UA,1607308882
Nacajuca,18.13,-93.02,71.56,94,100,6.78,MX,1607308882
Dombarovskiy,50.76,59.54,7.92,92,62,4.88,RU,1607308882
Sur,22.57,59.53,74.95,59,0,7.7,OM,1607308882
Naze,28.37,129.48,73.4,94,75,6.93,JP,1607308882
Ponta do Sol,32.67,-17.1,57.99,82,20,5.82,PT,1607308882
Ürümqi,43.8,87.6,10.4,85,90,2.24,CN,1607308882
Warrnambool,-38.38,142.48,57.99,70,52,5.01,AU,1607308825
St. George's,12.06,-61.75,78.8,83,20,6.93,GD,1607308883
Bambanglipuro,-7.95,110.28,82.0,80,93,13.42,ID,1607308883
Baiyin,36.56,104.21,30.99,85,92,2.24,CN,1607308883
Matara,5.95,80.54,81.84,73,79,1.95,LK,1607308883
Mounana,-1.41,13.16,68.38,93,98,1.81,GA,1607308883
Jiayuguan City,39.82,98.3,17.1,87,20,4.25,CN,1607308883
Malacacheta,-17.84,-42.08,67.17,96,100,3.15,BR,1607308883
Auki,-8.77,160.7,84.04,77,88,1.77,SB,1607308883
Ayan,56.45,138.17,9.39,82,27,9.89,RU,1607308883
Yairipok,24.67,94.07,51.8,76,40,1.83,IN,1607308883
Isangel,-19.55,169.27,84.2,79,75,5.82,VU,1607308883
Acapulco de Juárez,16.86,-99.89,82.4,78,40,4.7,MX,1607308884
Malumfashi,11.79,7.62,71.35,28,47,7.72,NG,1607308884
Methóni,36.82,21.7,55.0,100,63,4.7,GR,1607308884
Korla,41.76,86.15,27.79,83,72,1.86,CN,1607308884
Río Bueno,-40.32,-72.97,57.2,82,0,1.83,CL,1607308884
Istok,42.78,20.49,48.99,76,75,14.99,XK,1607308884
Aksu,41.12,80.26,24.22,86,98,0.67,CN,1607308884
Vysokogornyy,50.12,139.15,9.19,92,100,6.17,RU,1607308884
Kargasok,59.06,80.86,14.11,94,100,14.97,RU,1607308884
Kyaikkami,16.08,97.57,76.3,62,25,8.23,MM,1607308884
Santa Fe,-31.63,-60.7,64.99,69,14,6.78,AR,1607308870
Makakilo City,21.35,-158.09,82.4,61,90,11.41,US,1607308876
Taksimo,56.34,114.88,3.25,88,100,1.01,RU,1607308885
Ondjiva,-17.07,15.73,68.58,34,8,5.57,AO,1607308885
Bethel,41.37,-73.41,30.2,58,1,6.93,US,1607308618
Khani,41.96,42.96,44.6,56,0,26.4,GE,1607308885
Nioki,-2.72,17.68,69.8,97,23,1.68,CD,1607308885
Boguchany,58.38,97.45,9.66,92,100,12.5,RU,1607308885
Rabo de Peixe,37.8,-25.58,57.2,87,40,7.63,PT,1607308885
Weyburn,49.67,-103.85,33.8,64,0,8.05,CA,1607308885
Hanting,36.77,119.21,39.2,63,0,13.09,CN,1607308885
Lebu,-37.62,-73.65,52.7,97,49,10.54,CL,1607308885
Monrovia,6.3,-10.8,78.76,84,12,5.3,LR,1607308702
Singaparna,-7.35,108.11,76.69,79,97,1.9,ID,1607308885
Mossamedes,-15.2,12.15,66.47,75,5,6.82,AO,1607308886
Ketchikan,55.34,-131.65,48.2,87,75,13.87,US,1607308886
Gamba,-2.65,10.0,75.85,91,77,5.01,GA,1607308886
Tuatapere,-46.13,167.68,67.05,41,5,9.62,NZ,1607308617
Tautira,-17.73,-149.15,80.6,78,90,5.82,PF,1607308886
Brae,60.4,-1.35,44.6,81,50,11.41,GB,1607308886
Anloga,5.79,0.9,80.6,88,20,5.82,GH,1607308886
Kambove,-10.88,26.6,61.03,98,100,3.36,CD,1607308886
Menongue,-14.66,17.69,64.45,71,100,5.82,AO,1607308886
Narsaq,60.92,-46.05,28.4,58,5,12.75,GL,1607308886
Mitú,1.2,-70.17,72.39,97,71,0.4,CO,1607308699
Yerofey Pavlovich,53.97,121.97,5.25,85,100,2.62,RU,1607308886
Pacific Grove,36.62,-121.92,51.01,87,1,4.7,US,1607308639
Camocim,-2.9,-40.84,79.21,82,92,11.7,BR,1607308887
Lashio,22.93,97.75,67.32,69,11,1.74,MM,1607308887
Sorong,-0.88,131.25,82.13,75,100,5.19,ID,1607308887
Lata,40.16,-8.33,52.0,96,89,7.0,PT,1607308887
Baruun-Urt,46.68,113.28,-0.96,83,0,14.47,MN,1607308887
Pāsighāt,28.07,95.33,68.2,57,80,1.32,IN,1607308887
Røros,62.57,11.38,23.0,92,100,1.12,NO,1607308887
Rio Grande,-32.03,-52.1,62.01,94,99,3.0,BR,1607308774
Aykhal,66.0,111.5,-9.4,76,90,11.18,RU,1607308887
Necochea,-38.55,-58.74,64.0,53,0,13.78,AR,1607308887
Fort Nelson,58.81,-122.7,21.2,85,75,6.93,CA,1607308888
Husavik,66.04,-17.34,17.6,85,0,11.68,IS,1607308888
Youkounkoun,12.53,-13.13,72.5,36,23,3.94,GN,1607308888
Namikupa,-10.83,39.6,70.12,97,13,1.77,TZ,1607308888
Mount Gambier,-37.83,140.77,59.0,51,75,20.8,AU,1607308706
Māyakonda,14.28,76.08,70.54,80,94,15.17,IN,1607308888
Syas'stroy,60.14,32.57,31.78,84,0,15.35,RU,1607308888
Caxito,-8.58,13.66,72.45,88,98,2.15,AO,1607308888
Hulan,45.98,126.6,8.6,78,0,11.18,CN,1607308888
Palana,59.12,159.97,11.93,96,94,12.68,RU,1607308888
Virginia Beach,36.85,-75.98,41.0,69,90,1.99,US,1607308672
Marystown,47.17,-55.15,45.3,84,97,4.83,CA,1607308889
Panabá,21.28,-88.27,72.61,93,68,4.12,MX,1607308889
Delft,52.01,4.36,43.0,93,40,9.17,NL,1607308723
Shimoda,34.67,138.95,59.0,67,20,5.82,JP,1607308889
Oranjemund,-28.55,16.43,61.03,90,26,8.46,NA,1607308889
Lábrea,-7.26,-64.8,74.35,94,100,2.53,BR,1607308889
Anking,30.51,117.05,45.43,82,100,8.72,CN,1607308889
Dukat,62.55,155.55,-1.5,92,100,1.16,RU,1607308889
Helong,42.54,129.0,23.47,76,0,5.79,CN,1607308889
Kinsale,51.71,-8.53,39.0,100,75,11.41,IE,1607308890
Half Moon Bay,37.46,-122.43,54.0,81,40,8.05,US,1607308890
Tual,-5.67,132.75,85.42,64,81,1.92,ID,1607308674
Pericos,25.05,-107.7,68.0,42,5,4.52,MX,1607308890
Boende,-0.22,20.87,70.16,98,95,1.97,CD,1607308679
Kumul,42.8,93.45,25.93,76,0,2.17,CN,1607308890
Chestermere,51.03,-113.82,50.0,29,5,12.75,CA,1607308890
Aracaju,-10.91,-37.07,78.8,78,40,9.17,BR,1607308890
Tynda,55.17,124.72,-1.08,89,100,2.21,RU,1607308890
Amapá,1.0,-52.0,72.64,90,23,3.11,BR,1607308890
Bafra,41.57,35.91,42.8,93,75,4.7,TR,1607308890
Nador,35.17,-2.93,48.2,66,20,4.7,MA,1607308890
Floreffe,50.43,4.76,34.0,96,75,9.17,BE,1607308891
La Sarre,48.8,-79.2,10.76,96,10,5.35,CA,1607308670
Zemio,5.03,25.14,67.86,49,4,1.59,CF,1607308891
Los Llanos de Aridane,28.66,-17.92,62.6,88,75,5.82,ES,1607308891
Tongi,23.89,90.41,69.8,94,75,5.1,BD,1607308829
Pedernales,18.04,-71.74,76.21,66,49,4.25,DO,1607308891
Deep River,46.1,-77.5,21.2,79,75,9.17,CA,1607308891
Moerai,-22.43,-151.33,78.91,79,73,14.27,PF,1607308891
Sobolevo,54.43,31.9,20.1,92,0,11.65,RU,1607308891
Conceição da Barra,-18.59,-39.73,74.79,83,92,7.63,BR,1607308891
Berlevåg,70.86,29.09,31.23,89,99,3.22,NO,1607308892
Teya,60.38,92.63,8.11,90,100,15.46,RU,1607308892
Coquimbo,-29.95,-71.34,57.2,82,53,5.82,CL,1607308892
Onega,63.91,38.14,34.23,90,100,8.68,RU,1607308892
Marsh Harbour,26.54,-77.06,75.22,77,100,13.49,BS,1607308892
Orán,-23.13,-64.33,69.01,87,8,2.8,AR,1607308692
Burnie,-41.07,145.92,64.0,54,83,11.99,AU,1607308892
Arrondissement de Limoux,42.92,2.17,36.0,89,0,2.24,FR,1607308892
Shirokiy,49.76,129.52,7.74,93,76,6.85,RU,1607308892
Buchanan,5.88,-10.05,78.35,83,22,4.32,LR,1607308892
Cochrane,51.18,-114.47,50.0,38,1,12.75,CA,1607308892
Kiryat Gat,31.61,34.76,59.0,100,13,3.0,IL,1607308892
Itaqui,-29.13,-56.55,60.58,92,0,12.3,BR,1607308893
Tilichiki,60.47,166.1,16.29,99,100,8.68,RU,1607308893
Vilyuysk,63.76,121.62,-9.17,90,100,6.89,RU,1607308893
Alcântara,-2.41,-44.41,80.6,83,0,10.29,BR,1607308893
Katsuura,35.13,140.3,59.0,66,20,3.36,JP,1607308893
Harper,4.38,-7.72,77.88,80,1,3.94,LR,1607308893
Miquelon,47.1,-56.38,45.61,85,25,13.27,PM,1607308893
Maceió,-9.67,-35.74,73.4,94,20,3.36,BR,1607308893
Bilopillya,51.15,34.31,18.46,91,0,12.84,UA,1607308893
Umm Hājar,13.3,19.7,72.39,22,99,7.65,TD,1607308893
Zhigansk,66.77,123.37,-11.15,89,99,13.44,RU,1607308893
Cockburn Town,21.46,-71.14,77.0,73,20,4.7,TC,1607308666
Narón,43.52,-8.15,55.0,76,100,8.99,ES,1607308894
Aloleng,16.13,119.78,86.32,69,62,5.84,PH,1607308894
Buraidah,26.33,43.98,48.2,100,0,2.24,SA,1607308894
Kologriv,58.83,44.32,19.15,92,0,7.49,RU,1607308894
Sittwe,20.15,92.9,72.03,56,0,4.74,MM,1607308894
Waipawa,-41.41,175.52,66.2,88,80,19.46,NZ,1607308894
Rawson,-43.3,-65.1,83.1,22,68,21.97,AR,1607308894
Kapit,2.02,112.93,83.59,75,92,2.1,MY,1607308894
Guerrero Negro,27.98,-114.06,61.86,59,85,7.63,MX,1607308894
Khanbari,27.37,87.2,61.97,59,7,0.2,NP,1607308894
Ambon City,-3.7,128.18,86.0,79,40,4.7,ID,1607308894
Biberach an der Riss,48.09,9.79,33.01,98,100,5.82,DE,1607308895
Jipijapa,-1.33,-80.58,75.2,83,75,8.05,EC,1607308895
Sioux Lookout,50.1,-91.92,24.8,92,90,2.24,CA,1607308895
Marion,39.77,-86.16,32.0,80,90,5.82,US,1607308843
Mathbaria,22.29,89.96,73.99,56,0,4.05,BD,1607308895
Ulladulla,-35.35,150.47,77.0,22,0,23.04,AU,1607308895
Jacareacanga,-6.22,-57.75,73.42,96,100,2.28,BR,1607308895
Hearst,49.68,-83.67,23.0,92,36,2.48,CA,1607308707
Basco,20.45,121.97,78.03,87,80,23.51,PH,1607308895
Hualmay,-11.1,-77.61,66.22,85,97,6.64,PE,1607308895
Watertown,42.37,-71.18,32.0,63,1,12.75,US,1607308850
Lodja,-3.48,23.43,67.57,97,34,1.39,CD,1607308896
Ambovombe,-25.17,46.08,73.02,85,46,9.33,MG,1607308896
Tessalit,20.2,1.01,63.43,38,52,6.13,ML,1607308896
Rongcheng,30.63,117.85,54.0,81,100,5.28,CN,1607308896
Mongoumba,3.64,18.59,70.39,63,100,1.57,CF,1607308896
Arlit,18.74,7.39,71.82,24,0,4.79,NE,1607308896
Nuuk,64.18,-51.72,30.2,86,100,16.11,GL,1607308624
Calabozo,8.92,-67.43,75.69,87,94,4.25,VE,1607308896
Ţahţā,26.77,31.5,60.35,32,9,8.39,EG,1607308896
Beringovskiy,63.05,179.32,17.42,94,58,4.36,RU,1607308648
Pangnirtung,66.15,-65.71,0.28,87,95,1.48,CA,1607308897
Kysyl-Syr,63.9,122.76,-7.24,90,100,5.35,RU,1607308897
Huarmey,-10.07,-78.15,66.9,84,91,6.58,PE,1607308862
Saint Anthony,45.02,-93.22,35.01,86,90,6.93,US,1607308897
Sokoni,-6.43,39.55,80.47,69,5,1.41,TZ,1607308897
Nouakchott,18.09,-15.98,64.4,48,0,10.29,MR,1607308897
Eureka,40.8,-124.16,50.0,90,47,6.33,US,1607308811
Bato,13.35,123.37,86.2,69,97,5.61,PH,1607308897
Gizo Government Station,-8.1,156.84,85.41,69,71,2.48,SB,1607308898
Atoyac,20.02,-103.53,64.4,59,75,1.72,MX,1607308898
Soyo,-6.13,12.37,77.07,87,94,5.97,AO,1607308686
Porto Nacional,-10.71,-48.42,80.6,57,75,10.29,BR,1607308898
La Reforma,25.08,-108.05,63.0,63,0,4.0,MX,1607308898
Ōhara,35.25,140.38,59.0,66,20,4.7,JP,1607308898
Ternate,0.8,127.4,86.5,63,77,2.62,ID,1607308898
Maniitsoq,65.42,-52.9,26.38,97,100,14.61,GL,1607308898
Kirensk,57.79,108.11,9.68,93,100,12.73,RU,1607308899
Algiers,36.75,3.04,48.2,76,75,5.82,DZ,1607308882
A Coruña,43.37,-8.4,55.0,87,40,11.41,ES,1607308899
Graham,47.05,-122.29,48.0,93,1,3.04,US,1607308876
Xinmin,41.99,122.83,19.4,48,0,6.71,CN,1607308899
Kiunga,-6.12,141.29,91.04,56,79,1.41,PG,1607308899
Lorengau,-2.02,147.27,86.65,62,100,7.99,PG,1607308899
Yasnogorsk,54.48,37.7,17.42,93,0,7.36,RU,1607308899
Yaan,7.38,8.57,75.97,80,0,6.2,NG,1607308680
Bara,10.37,10.73,71.1,30,99,3.85,NG,1607308899
Soma,39.19,27.61,51.8,87,40,3.67,TR,1607308899
Octeville,49.63,-1.64,43.0,30,98,0.83,FR,1607308900
Vila Velha,-20.33,-40.29,77.0,83,40,8.05,BR,1607308900
Esperance,-33.87,121.9,66.2,52,31,8.05,AU,1607308900
Ixtapa,20.7,-105.2,72.0,88,90,2.26,MX,1607308900
Poroshkovo,48.67,22.75,33.01,81,0,10.0,UA,1607308900
Soubre,5.79,-6.61,71.49,98,25,2.73,CI,1607308900
Jiexiu,37.02,111.91,29.57,69,80,5.48,CN,1607308900
Touros,-5.2,-35.46,77.0,88,0,6.93,BR,1607308900
Danielskuil,-28.19,23.54,66.65,48,72,8.48,ZA,1607308900
Kerchevskiy,59.95,56.29,22.57,97,100,6.4,RU,1607308900
Brownsville,25.9,-97.5,51.8,76,1,6.87,US,1607308901
San Antonio,29.42,-98.49,53.6,46,1,4.7,US,1607308900
Dongying,37.46,118.49,36.82,69,0,11.81,CN,1607308901
Angren,41.02,70.14,26.53,85,99,1.59,UZ,1607308901
Galveston,29.37,-94.97,57.0,66,1,8.05,US,1607308901
Bagdarin,54.43,113.6,6.13,82,100,4.03,RU,1607308901
Kemin,42.78,75.69,18.05,82,66,0.43,KG,1607308901
Mchinji,-13.8,32.88,66.13,79,99,3.36,MW,1607308901
Wattegama,6.8,81.48,77.0,100,40,2.24,LK,1607308647
Puerto del Rosario,28.5,-13.86,60.8,77,20,10.29,ES,1607308901
Lydenburg,-25.1,30.46,64.0,96,2,1.99,ZA,1607308902
Kavaratti,10.57,72.64,82.58,75,100,11.72,IN,1607308902
Dayong,25.02,118.29,71.6,60,75,13.42,CN,1607308902
Vanavara,60.34,102.28,9.68,94,100,11.9,RU,1607308902
Sokol,59.46,40.12,19.36,94,0,7.07,RU,1607308902
Yumen,40.28,97.2,13.37,90,100,6.78,CN,1607308902
Severo-Yeniseyskiy,60.37,93.04,4.64,93,100,17.13,RU,1607308902
Viļāni,56.55,26.92,27.3,90,0,14.9,LV,1607308902
Bolshaya Martynovka,47.27,41.67,17.92,84,0,18.43,RU,1607308902
Saposoa,-6.93,-76.77,77.0,83,20,2.24,PE,1607308902
San Cristobal,7.77,-72.22,80.6,78,40,2.17,VE,1607308677
Fairbanks,64.84,-147.72,8.6,65,90,6.93,US,1607308864
Kingman,35.19,-114.05,51.01,20,1,6.93,US,1607308903
Bam,29.11,58.36,53.11,65,2,3.38,IR,1607308903
Rio Tinto,41.18,-8.56,57.2,87,75,11.41,PT,1607308903
Nelson Bay,-32.72,152.15,82.99,26,0,19.46,AU,1607308903
Santo Antônio do Amparo,-20.95,-44.92,66.72,96,100,4.85,BR,1607308903
Paamiut,61.99,-49.67,30.92,93,95,11.14,GL,1607308644
Talnakh,69.49,88.4,12.2,92,90,15.66,RU,1607308903
Shakawe,-18.37,21.85,71.35,78,100,5.39,BW,1607308903
Zhengjiatun,43.51,123.51,13.46,87,0,10.11,CN,1607308903
Bonfim,3.08,-59.95,78.1,78,48,7.31,BR,1607308903
Puerto Baquerizo Moreno,-0.9,-89.6,72.25,86,97,8.12,EC,1607308807
Ankazoabo,-22.28,44.52,73.99,81,25,2.28,MG,1607308904
Puri,19.8,85.85,66.2,93,0,6.85,IN,1607308904
Esim,4.87,-2.24,78.55,84,0,6.35,GH,1607308904
Bemidji,47.47,-94.88,28.99,100,90,4.7,US,1607308904
Nome,64.5,-165.41,12.2,61,1,8.05,US,1607308904
Ilulissat,69.22,-51.1,21.2,53,100,18.34,GL,1607308904
Haapsalu,58.94,23.54,34.0,70,100,8.01,EE,1607308904
Port Hedland,-20.32,118.57,91.4,63,22,14.99,AU,1607308662
Moratuwa,6.77,79.88,78.8,83,20,4.7,LK,1607308904
Chara,56.91,118.26,-0.36,81,38,3.71,RU,1607308904
Maun,-19.98,23.42,68.0,94,0,8.05,BW,1607308904
Taoudenni,22.68,-3.98,56.84,42,0,5.59,ML,1607308904
Nishihara,26.18,127.76,73.4,94,90,8.05,JP,1607308905
Dzaoudzi,-12.79,45.27,78.8,88,75,4.7,YT,1607308905
Kharp,66.8,65.81,29.17,95,55,18.12,RU,1607308905
