City,Lat,Lng,Max Temp,Humidity,Cloudiness,Wind Speed,Country,Date
Vammala,61.33,22.9,274.26,95,90,3.6,FI,1607127708
Rikitea,-23.12,-134.97,298.76,69,70,4.73,PF,1607127708
Riyadh,24.69,46.72,292.15,82,0,2.6,SA,1607127433
Cape Town,-33.93,18.42,290.37,67,0,3.6,ZA,1607127396
Carauari,-4.88,-66.9,298.38,89,67,0.38,BR,1607127493
Cabo San Lucas,22.89,-109.91,295.15,56,5,2.1,MX,1607127708
Ushuaia,-54.8,-68.3,283.15,61,75,8.2,AR,1607127708
Sinnamary,5.38,-52.95,298.88,86,0,3.39,GF,1607127708
Saskylakh,71.92,114.08,251.93,90,89,3.64,RU,1607127709
Punta Arenas,-53.15,-70.92,285.15,62,75,6.7,CL,1607127709
Slušovice,49.25,17.8,280.37,85,19,1.34,CZ,1607127709
Avarua,-21.21,-159.78,302.15,74,0,5.7,CK,1607127709
New Norfolk,-42.78,147.06,293.15,34,72,0.45,AU,1607127179
Chokurdakh,70.63,147.92,239.6,86,56,1.8,RU,1607127709
Port Alfred,-33.59,26.89,290.21,76,72,7.07,ZA,1607127709
Ribeira Grande,38.52,-28.7,289.14,77,77,6.56,PT,1607127709
Hithadhoo,-0.6,73.08,301.28,78,37,9.77,MV,1607127710
Constitución,-35.33,-72.42,286.52,77,0,2.89,CL,1607127710
Bantry,51.68,-9.45,279.15,81,75,12.9,IE,1607127710
Busselton,-33.65,115.33,287.59,60,73,4.02,AU,1607127710
Arraial do Cabo,-22.97,-42.03,298.15,89,46,4.38,BR,1607127710
Qaanaaq,77.48,-69.36,248.12,76,0,3.13,GL,1607127710
Antofagasta,-23.65,-70.4,291.15,72,20,5.1,CL,1607127482
Cayenne,4.93,-52.33,299.15,100,90,3.2,GF,1607127710
Thompson,55.74,-97.86,261.15,92,90,2.1,CA,1607127711
Mataura,-46.19,168.86,287.59,81,86,6.26,NZ,1607127711
Severo-Kuril'sk,50.68,156.12,271.59,89,58,5.28,RU,1607127187
Whitehorse,60.72,-135.05,270.37,92,75,1.5,CA,1607127711
Norman Wells,65.28,-126.83,263.15,72,75,2.6,CA,1607127711
Hong Kong,22.29,114.16,287.59,68,16,0.89,HK,1607127638
Kapaa,22.08,-159.32,301.15,69,40,9.8,US,1607127711
Vaini,-21.2,-175.2,301.15,74,75,4.1,TO,1607127711
Nanortalik,60.14,-45.24,273.69,88,82,5.26,GL,1607127180
Upernavik,72.79,-56.15,265.05,96,100,4.19,GL,1607127711
Luyang,27.62,110.1,276.52,80,91,0.99,CN,1607127712
Naples,40.83,14.25,288.15,67,20,5.7,IT,1607127557
Alofi,-19.06,-169.92,300.15,83,75,4.1,NU,1607127712
Leningradskiy,69.38,178.42,256.92,78,0,3.76,RU,1607127712
Tiksi,71.69,128.87,254.75,91,100,3.45,RU,1607127712
Hilo,19.73,-155.09,302.15,54,1,3.1,US,1607127532
Katobu,-4.94,122.53,299.49,83,91,2.48,ID,1607127712
Kaeo,-35.1,173.78,291.48,63,70,0.89,NZ,1607127712
Øksfjord,70.24,22.35,274.15,69,40,6.7,NO,1607127713
Ayorou,14.73,0.92,298.68,19,1,2.28,NE,1607127713
Castro,-24.79,-50.01,290.42,98,100,2.27,BR,1607127713
Kaitangata,-46.28,169.85,288.15,62,98,4.47,NZ,1607127713
Kimbe,-5.55,150.14,302.69,69,83,0.77,PG,1607127713
Batagay-Alyta,67.8,130.41,249.36,89,100,0.41,RU,1607127713
Mundo Nuevo (Ojo de Agua),18.7,-95.5,294.26,84,86,8.94,MX,1607127713
Bredasdorp,-34.53,20.04,290.15,67,86,6.7,ZA,1607127713
Longyearbyen,78.22,15.64,259.15,65,75,6.2,SJ,1607127713
Caucayá,-0.19,-74.78,297.58,87,100,0.47,CO,1607127182
Hobart,-42.88,147.33,293.15,42,75,6.7,AU,1607127509
Padang,-0.95,100.35,298.45,68,100,1.87,ID,1607127644
Antalaha,-14.9,50.28,295.27,89,49,2.34,MG,1607127714
Dumas,35.87,-101.97,280.37,45,1,2.1,US,1607127714
Dalbandin,28.89,64.41,286.02,43,10,4.04,PK,1607127714
Jacobina,-11.18,-40.52,296.22,70,9,1.33,BR,1607127714
Cukai,4.25,103.42,297.15,94,40,0.5,MY,1607127714
Biak,-0.91,122.88,301.2,71,93,0.32,ID,1607127715
Aguazul,5.17,-72.55,297.28,76,100,1.08,CO,1607127715
Itoman,26.12,127.67,292.15,82,75,8.2,JP,1607127715
Port Elizabeth,-33.92,25.57,290.15,77,0,5.1,ZA,1607127715
Muros,42.78,-9.06,279.82,94,99,0.45,ES,1607127715
Saint George,37.1,-113.58,283.15,15,1,1.5,US,1607127179
Pampa,35.54,-100.96,280.15,52,1,2.6,US,1607127715
Kamaishi,39.27,141.88,271.15,92,20,0.5,JP,1607127716
Inhambane,-23.86,35.38,295.64,77,93,5.03,MZ,1607127716
Cidreira,-30.18,-50.21,292.85,77,13,4.35,BR,1607127178
Mar del Plata,-38.0,-57.56,286.15,54,0,3.6,AR,1607127555
Chiredzi,-21.05,31.67,294.32,91,100,4.44,ZW,1607127716
Grindavik,63.84,-22.43,268.15,62,40,6.2,IS,1607127716
Salinópolis,-0.61,-47.36,300.42,80,91,5.34,BR,1607127716
Yellowknife,62.46,-114.35,265.15,92,75,2.6,CA,1607127483
Tāndā,26.55,82.65,289.23,41,0,0.43,IN,1607127716
Singaraja,-8.11,115.09,301.25,71,100,1.71,ID,1607127717
Klaksvík,62.23,-6.59,275.15,93,90,1.5,FO,1607127717
Tasiilaq,65.61,-37.64,267.15,92,100,2.1,GL,1607127717
Caravelas,-17.71,-39.25,298.6,83,81,4.36,BR,1607127718
Kawalu,-7.38,108.21,297.88,82,88,0.39,ID,1607127718
Rognan,67.1,15.39,278.15,56,75,4.1,NO,1607127718
Port-Gentil,-0.72,8.78,300.15,88,40,5.1,GA,1607127718
Olafsvik,64.89,-23.71,268.78,86,97,4.59,IS,1607127718
Flinders,-34.58,150.86,297.04,70,61,3.13,AU,1607127719
Albany,42.6,-73.97,279.82,54,85,1.65,US,1607127608
Tuktoyaktuk,69.45,-133.04,257.15,77,20,5.1,CA,1607127719
Dikson,73.51,80.55,271.51,97,99,9.24,RU,1607127720
Bengkulu,-3.8,102.27,297.58,80,100,2.11,ID,1607127720
Puerto Ayora,-0.74,-90.35,298.15,65,40,6.2,EC,1607127720
Ancud,-41.87,-73.82,289.15,51,0,2.6,CL,1607127720
Nikolskoye,59.7,30.79,274.15,80,90,6.0,RU,1607127720
Jamestown,42.1,-79.24,277.59,74,90,2.6,US,1607127721
Merauke,-8.47,140.33,300.99,80,100,3.52,ID,1607127722
Kerema,-7.96,145.78,301.55,71,100,2.55,PG,1607127722
Bambous Virieux,-20.34,57.76,297.15,88,40,0.5,MU,1607127723
Camacha,33.08,-16.33,288.15,72,75,11.3,PT,1607127724
Dingle,11.0,122.67,300.04,84,83,1.82,PH,1607127724
Batemans Bay,-35.72,150.18,295.93,61,47,0.45,AU,1607127454
Seybaplaya,19.65,-90.67,298.15,88,40,2.6,MX,1607127724
Itupiranga,-5.13,-49.33,299.34,77,96,0.77,BR,1607127725
Itarema,-2.92,-39.92,300.06,78,68,7.66,BR,1607127725
Atuona,-9.8,-139.03,298.96,74,2,6.91,PF,1607127726
Tura,25.52,90.22,288.08,90,0,0.72,IN,1607127176
Sørland,67.67,12.69,277.87,69,100,4.51,NO,1607127726
Sakakah,29.97,40.21,288.15,82,90,4.6,SA,1607127726
Brezno,48.8,19.64,280.15,75,90,2.1,SK,1607127726
Kahului,20.89,-156.47,304.15,45,20,11.8,US,1607127727
Benbrook,32.67,-97.46,285.37,54,1,0.32,US,1607127727
Cabedelo,-6.98,-34.83,299.15,83,20,4.1,BR,1607127457
Hambantota,6.12,81.12,299.33,81,68,6.08,LK,1607127728
La Rioja,42.25,-2.5,276.15,86,0,3.6,ES,1607127728
Lysyye Gory,51.55,44.84,259.91,92,0,2.75,RU,1607127728
Bluff,-46.6,168.33,285.93,89,89,3.13,NZ,1607126993
Rocha,-34.48,-54.33,284.04,70,93,3.26,UY,1607127729
Henties Bay,-22.12,14.28,288.71,85,65,2.47,NA,1607127730
Palmer,42.16,-72.33,282.15,61,90,3.1,US,1607127730
Ribeira Brava,32.65,-17.07,289.15,63,40,4.6,PT,1607127730
Akureyri,65.68,-18.09,268.15,73,90,1.5,IS,1607127730
Yima,34.74,111.88,272.67,86,33,0.57,CN,1607127731
Masuda,34.67,131.85,280.15,81,40,4.1,JP,1607127731
Hasaki,35.73,140.83,279.26,93,75,4.1,JP,1607127186
Carnarvon,-24.87,113.63,293.15,68,80,10.3,AU,1607127177
Taltal,-25.4,-70.48,289.1,74,23,2.14,CL,1607127621
Pevek,69.7,170.31,256.46,79,19,3.94,RU,1607127731
Airai,-8.93,125.41,291.99,100,98,0.64,TL,1607127176
Chui,-33.7,-53.46,286.24,70,74,4.73,UY,1607127732
Hanmer Springs,-42.52,172.82,290.46,45,95,6.29,NZ,1607127732
Te Anau,-45.42,167.72,285.08,77,76,1.87,NZ,1607127732
Chifeng,42.27,118.96,258.38,85,0,2.82,CN,1607127732
Władysławowo,54.79,18.4,277.59,78,0,3.1,PL,1607127733
Mana,5.66,-53.78,298.81,86,0,3.33,GF,1607127733
Peniche,39.36,-9.38,279.82,95,98,0.45,PT,1607127733
Kandry,54.57,54.12,257.38,89,55,1.16,RU,1607127734
Batagay,67.63,134.63,239.91,81,23,1.19,RU,1607127734
Provideniya,64.38,-173.3,264.31,88,3,1.62,RU,1607127734
Manzhouli,49.6,117.43,258.19,91,24,3.97,CN,1607127734
Nemuro,43.32,145.57,274.15,69,20,5.1,JP,1607127735
Hailar,49.2,119.7,257.45,93,18,4.12,CN,1607127735
Butaritari,3.07,172.79,300.62,79,27,5.44,KI,1607127735
Saint-Philippe,-21.36,55.77,297.15,64,0,1.5,RE,1607127735
Dali,25.7,100.18,278.71,82,3,0.95,CN,1607127736
Hammerfest,70.66,23.68,273.15,94,0,4.6,NO,1607127736
Barrow,71.29,-156.79,262.15,78,90,9.3,US,1607127736
Hermanus,-34.42,19.23,289.82,73,99,3.13,ZA,1607127737
Meulaboh,4.14,96.13,297.89,90,100,2.96,ID,1607127181
Portland,45.52,-122.68,284.15,50,1,2.26,US,1607126978
Paita,-5.09,-81.11,292.77,83,47,7.33,PE,1607127737
Khatanga,71.97,102.5,264.16,97,100,6.35,RU,1607127180
Gilgit,35.92,74.31,276.68,65,67,0.76,PK,1607127738
Fortuna,40.6,-124.16,285.37,77,0,0.45,US,1607127738
Jingdezhen,29.29,117.21,276.68,76,0,1.4,CN,1607127738
San Patricio,28.02,-97.52,284.15,53,20,2.6,US,1607127739
Sola,-13.88,167.55,302.15,83,75,0.7,VU,1607127739
Tevaitoa,-16.78,-151.5,300.66,76,69,9.11,PF,1607127739
Bell Ville,-32.63,-62.69,288.71,56,82,0.89,AR,1607127740
Stratoni,40.51,23.82,285.93,93,99,0.45,GR,1607127740
Garoowe,8.41,48.48,294.49,82,84,3.75,SO,1607127607
Kibakwe,-6.72,36.37,291.16,88,15,1.3,TZ,1607127740
Kamenka,51.32,42.77,263.67,86,20,3.76,RU,1607127741
Uvalde,29.37,-99.77,284.15,43,1,2.6,US,1607127741
Margate,51.38,1.39,279.82,83,89,3.58,GB,1607127527
Trogir,43.51,16.25,288.15,67,11,7.2,HR,1607127741
Beasain,43.05,-2.2,277.59,70,58,0.89,ES,1607127742
Bodden Town,19.28,-81.25,300.15,83,20,3.1,KY,1607127742
Kovdor,67.57,30.48,268.11,97,100,3.38,RU,1607127742
Yulara,-25.24,130.99,304.15,33,33,10.3,AU,1607127743
Kruisfontein,-34.0,24.73,286.48,87,60,0.45,ZA,1607127743
San Borja,-14.82,-66.85,297.46,94,100,1.27,BO,1607127476
Manaus,-3.1,-60.02,300.15,74,75,1.5,BR,1607127737
East London,-33.02,27.91,290.45,77,99,6.12,ZA,1607127744
Faanui,-16.48,-151.75,300.2,79,95,8.96,PF,1607127176
Torbay,47.67,-52.73,274.82,88,5,3.6,CA,1607126951
São João da Barra,-21.64,-41.05,297.63,91,98,5.43,BR,1607127112
Qasigiannguit,68.82,-51.19,275.15,64,100,4.1,GL,1607127744
Marsá Maţrūḩ,31.35,27.25,286.15,66,20,2.92,EG,1607127744
Belyy Yar,53.6,91.39,254.15,91,90,1.0,RU,1607127745
Lima,-12.04,-77.03,292.15,82,75,7.7,PE,1607127205
Bubaque,11.28,-15.83,300.61,71,34,7.55,GW,1607127745
Saint-Pierre,-21.34,55.48,297.15,64,0,1.5,RE,1607127745
North Bend,43.41,-124.22,290.15,51,1,1.5,US,1607127429
Hamilton,39.18,-84.53,278.15,100,1,2.6,US,1607127630
Petropavlovsk-Kamchatskiy,53.05,158.65,259.15,65,0,3.0,RU,1607127746
Codrington,-38.27,141.97,295.92,46,100,11.23,AU,1607127746
Jalu,29.03,21.55,285.13,77,0,1.68,LY,1607127746
Whitianga,-36.83,175.7,293.15,60,83,3.58,NZ,1607127747
Sept-Îles,50.2,-66.38,273.71,96,100,2.1,CA,1607127688
Haines Junction,60.75,-137.51,264.15,85,100,2.6,CA,1607127747
Asău,46.43,26.4,275.93,37,34,0.97,RO,1607127747
Aswān,24.09,32.91,287.33,40,20,1.71,EG,1607127747
Esmeraldas,-19.76,-44.31,296.15,78,40,1.5,BR,1607127747
Saint Paul Harbor,57.79,-152.41,270.15,53,1,2.6,US,1607127748
Barrhead,55.8,-4.39,278.15,86,93,8.2,GB,1607127748
Shaunavon,49.65,-108.42,273.15,92,0,6.2,CA,1607127741
Road Town,18.42,-64.62,299.15,69,40,4.1,VG,1607127749
Samarai,-10.62,150.67,301.53,75,62,2.98,PG,1607127184
Labuhan,-6.88,112.21,299.85,82,100,2.49,ID,1607127749
Yar-Sale,66.83,70.83,262.08,92,81,6.09,RU,1607127749
South Lake Tahoe,38.93,-119.98,280.37,45,1,1.91,US,1607127740
Laguna,38.42,-121.42,291.48,27,1,1.5,US,1607127749
Nantucket,41.28,-70.1,285.15,76,90,4.6,US,1607127749
Emerald,-23.53,148.17,305.37,39,53,2.6,AU,1607127749
Port Hawkesbury,45.62,-61.35,281.15,87,75,4.6,CA,1607127749
Poum,-20.23,164.02,298.73,73,1,1.78,NC,1607127750
Morant Bay,17.88,-76.41,301.15,61,40,5.7,JM,1607127750
Barma,8.35,-11.33,296.36,94,32,0.78,SL,1607127750
Lagoa,39.05,-27.98,289.58,79,100,7.38,PT,1607127751
Iqaluit,63.75,-68.51,270.15,86,90,3.6,CA,1607127179
Grand Forks,47.94,-97.43,270.15,92,90,1.5,US,1607127596
Kurchum,48.57,83.65,263.32,82,68,0.88,KZ,1607127751
Brownwood,31.71,-98.99,283.15,34,1,1.5,US,1607127472
Storforshei,66.4,14.52,277.15,60,75,3.6,NO,1607127751
Lavrentiya,65.58,-171.0,261.28,80,0,1.77,RU,1607127751
Dongsheng,39.82,109.98,260.52,95,5,3.25,CN,1607127751
George Town,5.41,100.34,298.15,78,20,1.0,MY,1607127636
Pisco,-13.7,-76.22,293.15,77,0,9.8,PE,1607127751
Aklavik,68.22,-135.01,248.15,75,5,1.0,CA,1607127752
Grand Gaube,-20.01,57.66,296.48,81,93,2.24,MU,1607127752
Tahe,52.33,124.73,258.13,91,25,1.51,CN,1607127753
Joshīmath,30.57,79.57,277.46,60,49,2.41,IN,1607127753
Pitimbu,-7.47,-34.81,299.15,88,20,4.1,BR,1607127753
Verkhnevilyuysk,63.45,120.32,251.81,91,98,2.66,RU,1607127753
Bonavista,48.65,-53.11,275.37,93,68,2.6,CA,1607127753
Lompoc,34.64,-120.46,292.15,32,1,1.5,US,1607127753
Mezen',65.85,44.24,266.13,96,100,4.08,RU,1607127753
Seymchan,62.88,152.43,243.84,86,41,0.37,RU,1607127754
Mujiayingzi,42.12,118.78,258.18,85,0,2.98,CN,1607127754
San Quintín,30.48,-115.95,290.76,42,0,4.07,MX,1607127754
Gillette,44.29,-105.5,279.26,37,1,3.1,US,1607127754
Mount Isa,-20.73,139.5,309.15,34,36,4.1,AU,1607127183
Salalah,17.02,54.09,296.15,60,0,1.0,OM,1607127754
Pangody,65.85,74.49,261.63,95,100,6.64,RU,1607127754
La Ronge,55.1,-105.28,275.15,69,77,1.0,CA,1607127175
Rørvik,64.86,11.24,278.09,69,100,9.04,NO,1607127755
Camopi,3.17,-52.32,296.04,97,52,1.12,GF,1607127755
Marabu,4.41,114.01,298.15,94,20,2.1,MY,1607127669
Bokoro,12.38,17.06,296.72,19,98,3.56,TD,1607127755
Kirakira,-10.45,161.92,300.24,84,45,6.36,SB,1607127755
Clyde River,70.47,-68.59,256.15,84,90,3.1,CA,1607127755
Alice Springs,-23.7,133.88,312.04,19,32,10.8,AU,1607127567
San Juan,-31.54,-68.54,294.97,37,0,5.49,AR,1607127755
Mogadishu,2.04,45.34,298.72,85,86,5.08,SO,1607127755
Spirit River,55.78,-118.84,277.15,69,82,3.6,CA,1607127755
Heishan,41.69,122.11,267.21,81,0,0.08,CN,1607127756
Borzya,50.38,116.52,256.75,91,28,2.01,RU,1607127756
Nabire,-3.37,135.48,302.14,76,89,0.35,ID,1607127756
Krasnyy Kut,50.95,46.97,259.68,89,0,2.92,RU,1607127756
Cherskiy,68.75,161.3,251.22,78,45,2.78,RU,1607127756
San Felipe,10.34,-68.74,295.46,91,84,1.63,VE,1607127756
Srednekolymsk,67.45,153.68,241.15,85,8,0.64,RU,1607127757
Mpanda,-6.37,31.04,291.15,92,97,1.01,TZ,1607127757
Koulamoutou,-1.13,12.47,294.62,94,16,1.16,GA,1607127757
Hidalgotitlán,17.78,-94.63,296.15,73,90,8.7,MX,1607127757
Tokonou,9.65,-9.78,295.37,39,0,1.43,GN,1607127757
Vao,-22.67,167.48,297.3,77,18,4.57,NC,1607127179
Lüderitz,-26.65,15.16,288.98,77,0,7.81,NA,1607127757
Venado Tuerto,-33.75,-61.97,289.26,51,83,0.89,AR,1607127758
Naurskaya,43.65,45.31,277.15,100,90,7.0,RU,1607127758
Acarí,-15.43,-74.62,293.73,64,100,2.19,PE,1607127758
São Filipe,14.9,-24.5,297.57,78,99,4.18,CV,1607127180
Hofn,64.25,-15.21,268.61,88,0,9.92,IS,1607127758
Ostrovnoy,68.05,39.51,270.31,95,90,10.24,RU,1607127758
Mahibadhoo,3.78,72.97,300.93,79,88,7.6,MV,1607127759
Beloha,-25.17,45.05,292.02,79,88,2.79,MG,1607127759
Tazovsky,67.47,78.7,266.08,96,100,8.78,RU,1607127759
Qaqortoq,60.72,-46.03,278.15,32,100,7.7,GL,1607127759
Kavieng,-2.57,150.8,302.6,64,39,2.12,PG,1607127759
Mahébourg,-20.41,57.7,297.15,88,40,0.5,MU,1607127759
Seminole,28.71,-81.21,294.15,68,1,2.1,US,1607127537
Domoni,-12.26,44.53,298.9,73,7,1.45,KM,1607127760
Turukhansk,65.82,87.98,263.08,96,100,7.58,RU,1607127760
Baní,18.28,-70.33,298.71,97,87,4.58,DO,1607127760
Bucksport,44.57,-68.8,279.82,82,100,1.34,US,1607127760
Cabras,39.93,8.53,283.15,91,76,3.58,IT,1607127760
Dakar,14.69,-17.44,298.15,78,0,6.2,SN,1607127759
Kiomboi,-4.27,34.37,290.25,88,16,1.33,TZ,1607127760
Prince George,53.92,-122.75,276.48,86,90,3.1,CA,1607127534
Namatanai,-3.67,152.43,302.77,64,95,2.28,PG,1607127760
Ballina,-28.87,153.57,304.26,66,5,5.7,AU,1607127761
Waingapu,-9.66,120.26,301.83,69,100,1.05,ID,1607127177
Planadas,3.2,-75.65,292.6,76,84,1.41,CO,1607127761
Prainha,-1.8,-53.48,301.15,59,74,2.3,BR,1607127761
Kayes,14.0,-11.0,299.35,17,0,1.32,ML,1607127761
Kaz,52.91,87.31,257.58,92,69,0.96,RU,1607127761
Santa Ana,33.75,-117.87,296.15,14,1,2.6,US,1607127724
Mayumba,-3.43,10.66,298.36,90,57,2.31,GA,1607127761
Skjervøy,70.03,20.97,275.66,78,92,4.71,NO,1607127762
Mitsamiouli,-11.38,43.28,300.0,71,0,3.64,KM,1607127762
Sitka,57.05,-135.33,281.15,87,90,3.6,US,1607127762
Hinundayan,10.35,125.25,301.57,73,61,0.42,PH,1607127762
Takoradze,4.88,-1.76,299.02,85,0,3.24,GH,1607127762
Puerto Escondido,15.85,-97.07,300.15,74,5,1.93,MX,1607127762
Irbeyskoye,55.64,95.45,257.19,92,100,3.6,RU,1607127762
Olinda,-8.01,-34.86,299.15,74,40,3.6,BR,1607127762
Niceville,30.52,-86.48,287.15,82,75,4.6,US,1607127557
Kjøllefjord,70.95,27.35,273.15,93,75,6.2,NO,1607127762
Havøysund,71.0,24.66,273.15,94,0,4.6,NO,1607127762
Saint-Augustin,51.23,-58.65,275.03,94,100,4.11,CA,1607127763
Maragogi,-9.01,-35.22,298.39,85,68,4.39,BR,1607127763
Osakarovka,50.56,72.57,251.15,90,77,4.22,KZ,1607127763
Cotia,-23.67,-46.95,296.15,83,75,3.6,BR,1607127763
Tokmak,47.25,35.71,273.24,95,6,5.31,UA,1607127763
Nacajuca,18.13,-93.02,295.15,100,75,3.1,MX,1607127763
Dombarovskiy,50.76,59.54,258.84,94,97,3.66,RU,1607127763
Sur,22.57,59.53,296.62,62,0,1.75,OM,1607127763
Naze,28.37,129.48,291.15,77,75,6.2,JP,1607127728
Ponta do Sol,32.67,-17.1,289.15,72,40,3.6,PT,1607127185
Ürümqi,43.8,87.6,261.15,92,51,2.0,CN,1607127255
Warrnambool,-38.38,142.48,295.07,46,100,11.48,AU,1607127764
St. George's,12.06,-61.75,299.15,83,40,7.7,GD,1607127764
Bambanglipuro,-7.95,110.28,300.28,77,100,1.57,ID,1607127764
Baiyin,36.56,104.21,269.26,72,40,1.0,CN,1607127764
Matara,5.95,80.54,298.52,86,63,4.05,LK,1607127764
Mounana,-1.41,13.16,293.92,96,37,1.32,GA,1607127764
Jiayuguan City,39.82,98.3,264.44,91,79,0.41,CN,1607127764
Malacacheta,-17.84,-42.08,294.78,92,100,1.0,BR,1607127764
Auki,-8.77,160.7,298.68,84,100,2.02,SB,1607127765
Ayan,56.45,138.17,262.17,83,88,5.36,RU,1607127765
Yairipok,24.67,94.07,283.61,93,2,0.56,IN,1607127765
Isangel,-19.55,169.27,302.15,79,75,4.1,VU,1607127765
Acapulco de Juárez,16.86,-99.89,301.15,74,40,2.1,MX,1607127765
Malumfashi,11.79,7.62,294.5,23,5,2.8,NG,1607127765
Methóni,36.82,21.7,285.93,100,20,1.51,GR,1607127765
Korla,41.76,86.15,266.17,87,71,0.75,CN,1607127765
Río Bueno,-40.32,-72.97,290.15,42,0,3.1,CL,1607127766
Istok,42.78,20.49,278.15,80,75,2.1,XK,1607127766
Aksu,41.12,80.26,266.73,89,100,0.91,CN,1607127766
Vysokogornyy,50.12,139.15,259.39,93,95,4.51,RU,1607127766
Kargasok,59.06,80.86,255.22,93,35,2.28,RU,1607127766
Kyaikkami,16.08,97.57,295.74,74,62,4.17,MM,1607127766
Santa Fe,-31.63,-60.7,292.59,49,85,0.45,AR,1607127661
Makakilo City,21.35,-158.09,302.15,58,75,3.6,US,1607127766
Taksimo,56.34,114.88,257.74,84,93,0.85,RU,1607127767
Ondjiva,-17.07,15.73,295.19,25,67,2.69,AO,1607127767
Bethel,41.37,-73.41,279.26,94,90,0.89,US,1607127767
Khani,41.96,42.96,284.15,50,0,11.3,GE,1607127767
Nioki,-2.72,17.68,295.26,97,100,1.47,CD,1607127767
Boguchany,58.38,97.45,253.59,89,23,1.48,RU,1607127767
Rabo de Peixe,37.8,-25.58,287.15,93,75,4.1,PT,1607127767
Weyburn,49.67,-103.85,273.15,95,29,4.6,CA,1607127768
Hanting,36.77,119.21,273.22,85,52,1.05,CN,1607127768
Lebu,-37.62,-73.65,286.55,75,0,8.39,CL,1607127768
Monrovia,6.3,-10.8,299.15,94,75,3.78,LR,1607127634
Singaparna,-7.35,108.11,297.53,80,87,0.35,ID,1607127768
Mossamedes,-15.2,12.15,291.72,77,82,2.84,AO,1607127769
Ketchikan,55.34,-131.65,282.15,100,90,12.9,US,1607127177
Gamba,-2.65,10.0,298.4,88,92,4.11,GA,1607127769
Tuatapere,-46.13,167.68,287.59,81,72,6.26,NZ,1607127769
Tautira,-17.73,-149.15,303.15,55,75,5.1,PF,1607127769
Brae,60.4,-1.35,279.15,87,98,4.6,GB,1607127769
Anloga,5.79,0.9,300.15,88,20,4.1,GH,1607127769
Kambove,-10.88,26.6,289.17,100,94,0.88,CD,1607127769
Menongue,-14.66,17.69,290.53,79,54,1.32,AO,1607127770
Narsaq,60.92,-46.05,278.15,32,100,7.7,GL,1607127770
Mitú,1.2,-70.17,297.66,90,100,0.75,CO,1607127770
Yerofey Pavlovich,53.97,121.97,255.75,90,0,0.94,RU,1607127770
Pacific Grove,36.62,-121.92,292.59,34,1,1.89,US,1607127771
Camocim,-2.9,-40.84,300.55,72,55,7.82,BR,1607127771
Lashio,22.93,97.75,284.52,94,16,0.67,MM,1607127771
Sorong,-0.88,131.25,301.76,78,36,3.02,ID,1607127771
Lata,40.16,-8.33,279.26,91,100,0.45,PT,1607127771
Baruun-Urt,46.68,113.28,254.44,89,0,6.01,MN,1607127771
Pāsighāt,28.07,95.33,287.79,72,73,1.67,IN,1607127771
Røros,62.57,11.38,272.15,80,95,1.5,NO,1607127771
Rio Grande,-32.03,-52.1,290.93,74,59,0.89,BR,1607127559
Aykhal,66.0,111.5,251.15,83,0,3.0,RU,1607127772
Necochea,-38.55,-58.74,284.82,68,4,4.17,AR,1607127772
Fort Nelson,58.81,-122.7,267.15,92,75,2.23,CA,1607127772
Husavik,66.04,-17.34,268.15,73,90,1.5,IS,1607127772
Youkounkoun,12.53,-13.13,298.33,24,0,0.43,GN,1607127772
Namikupa,-10.83,39.6,294.12,98,17,1.25,TZ,1607127772
Mount Gambier,-37.83,140.77,295.15,26,75,10.3,AU,1607127772
Māyakonda,14.28,76.08,292.5,93,72,5.27,IN,1607127772
Syas'stroy,60.14,32.57,273.73,92,100,6.38,RU,1607127773
Caxito,-8.58,13.66,298.15,88,20,2.1,AO,1607127773
Hulan,45.98,126.6,259.15,77,0,4.0,CN,1607127773
Palana,59.12,159.97,261.22,93,10,3.71,RU,1607127773
Virginia Beach,36.85,-75.98,289.26,80,99,0.89,US,1607127761
Marystown,47.17,-55.15,277.09,86,97,3.28,CA,1607127773
Panabá,21.28,-88.27,296.28,91,40,3.05,MX,1607127773
Delft,52.01,4.36,276.15,79,16,4.1,NL,1607127565
Shimoda,34.67,138.95,282.15,93,75,8.2,JP,1607127773
Oranjemund,-28.55,16.43,288.55,89,0,1.87,NA,1607127773
Lábrea,-7.26,-64.8,298.27,82,97,1.11,BR,1607127774
Anking,30.51,117.05,276.59,72,0,2.61,CN,1607127774
Dukat,62.55,155.55,251.22,90,61,1.53,RU,1607127774
Helong,42.54,129.0,266.75,73,0,2.58,CN,1607127774
Kinsale,51.71,-8.53,279.15,81,75,12.9,IE,1607127774
Half Moon Bay,37.46,-122.43,290.93,72,5,2.6,US,1607127467
Tual,-5.67,132.75,302.61,68,100,2.26,ID,1607127774
Pericos,25.05,-107.7,296.15,25,5,5.1,MX,1607127774
Boende,-0.22,20.87,294.67,96,100,0.47,CD,1607127625
Kumul,42.8,93.45,264.29,81,5,1.19,CN,1607127774
Chestermere,51.03,-113.82,281.15,39,20,2.1,CA,1607127623
Aracaju,-10.91,-37.07,300.15,78,20,6.2,BR,1607127569
Tynda,55.17,124.72,253.17,89,71,1.35,RU,1607127775
Amapá,1.0,-52.0,296.38,91,100,1.53,BR,1607127775
Bafra,41.57,35.91,276.15,93,43,2.1,TR,1607127775
Nador,35.17,-2.93,284.15,71,20,9.8,MA,1607127775
Floreffe,50.43,4.76,274.26,90,33,3.1,BE,1607127775
La Sarre,48.8,-79.2,263.51,96,84,2.75,CA,1607127775
Zemio,5.03,25.14,298.26,40,98,0.63,CF,1607127775
Los Llanos de Aridane,28.66,-17.92,291.15,72,0,3.1,ES,1607127776
Tongi,23.89,90.41,293.15,82,3,1.7,BD,1607127776
Pedernales,18.04,-71.74,298.32,74,45,2.33,DO,1607127776
Deep River,46.1,-77.5,275.15,93,90,0.83,CA,1607127756
Moerai,-22.43,-151.33,299.2,78,83,3.93,PF,1607127776
Sobolevo,54.43,31.9,270.03,94,53,6.26,RU,1607127776
Conceição da Barra,-18.59,-39.73,298.47,84,98,4.54,BR,1607127776
Berlevåg,70.86,29.09,273.15,95,75,6.2,NO,1607127776
Teya,60.38,92.63,252.62,88,20,1.63,RU,1607127776
Coquimbo,-29.95,-71.34,287.15,82,0,4.1,CL,1607127777
Onega,63.91,38.14,268.52,96,93,4.36,RU,1607127777
Marsh Harbour,26.54,-77.06,296.72,69,43,5.47,BS,1607127777
Orán,-23.13,-64.33,292.04,96,99,0.45,AR,1607127777
Burnie,-41.07,145.92,288.15,78,89,3.13,AU,1607127777
Arrondissement de Limoux,42.92,2.17,276.15,100,90,2.1,FR,1607127777
Shirokiy,49.76,129.52,259.04,94,18,2.97,RU,1607127778
Buchanan,5.88,-10.05,299.15,94,75,2.97,LR,1607127778
Cochrane,51.18,-114.47,281.15,38,1,1.5,CA,1607127778
Kiryat Gat,31.61,34.76,288.15,100,100,1.7,IL,1607127778
Itaqui,-29.13,-56.55,295.18,61,91,6.73,BR,1607127779
Tilichiki,60.47,166.1,264.53,97,100,2.24,RU,1607127779
Vilyuysk,63.76,121.62,251.48,91,100,2.81,RU,1607127779
Alcântara,-2.41,-44.41,301.15,83,20,4.6,BR,1607127780
Katsuura,35.13,140.3,281.15,87,75,4.6,JP,1607127186
Harper,4.38,-7.72,298.77,83,96,2.98,LR,1607127780
Miquelon,47.1,-56.38,278.15,93,75,6.7,PM,1607127780
Maceió,-9.67,-35.74,298.15,88,40,2.6,BR,1607127780
Bilopillya,51.15,34.31,269.64,95,8,4.47,UA,1607127780
Umm Hājar,13.3,19.7,296.42,20,58,3.52,TD,1607127780
Zhigansk,66.77,123.37,247.97,88,88,4.49,RU,1607127780
Cockburn Town,21.46,-71.14,298.15,78,75,2.6,TC,1607127781
Narón,43.52,-8.15,283.71,83,91,7.34,ES,1607127726
Aloleng,16.13,119.78,300.15,76,83,3.25,PH,1607127781
Buraidah,26.33,43.98,291.15,100,75,1.5,SA,1607127781
Kologriv,58.83,44.32,264.87,94,99,3.5,RU,1607127781
Sittwe,20.15,92.9,292.33,69,0,2.79,MM,1607127781
Waipawa,-41.41,175.52,290.15,72,83,9.8,NZ,1607127782
Rawson,-43.3,-65.1,289.45,39,69,7.95,AR,1607127782
Kapit,2.02,112.93,297.96,89,83,0.06,MY,1607127782
Guerrero Negro,27.98,-114.06,294.26,23,0,3.7,MX,1607127185
Khanbari,27.37,87.2,286.37,74,90,1.25,NP,1607127782
Ambon City,-3.7,128.18,306.15,70,40,1.0,ID,1607127782
Biberach an der Riss,48.09,9.79,270.93,100,75,1.5,DE,1607127782
Jipijapa,-1.33,-80.58,297.15,78,40,4.6,EC,1607127783
Sioux Lookout,50.1,-91.92,263.15,85,90,1.5,CA,1607127783
Marion,39.77,-86.16,279.26,70,20,2.6,US,1607127771
Mathbaria,22.29,89.96,290.46,76,0,0.94,BD,1607127783
Ulladulla,-35.35,150.47,296.48,64,90,4.1,AU,1607127783
Jacareacanga,-6.22,-57.75,298.9,78,71,1.14,BR,1607127784
Hearst,49.68,-83.67,266.15,92,100,2.6,CA,1607127784
Basco,20.45,121.97,297.36,84,99,16.65,PH,1607127784
Hualmay,-11.1,-77.61,292.45,81,74,4.91,PE,1607127784
Watertown,42.37,-71.18,285.15,62,90,5.1,US,1607127593
Lodja,-3.48,23.43,293.69,98,98,0.09,CD,1607127784
Ambovombe,-25.17,46.08,293.62,77,98,3.93,MG,1607127784
Tessalit,20.2,1.01,294.15,24,71,3.04,ML,1607127785
Rongcheng,30.63,117.85,276.16,77,2,1.33,CN,1607127786
Mongoumba,3.64,18.59,294.86,46,13,0.73,CF,1607127786
Arlit,18.74,7.39,298.6,21,31,2.38,NE,1607127786
Nuuk,64.18,-51.72,274.15,96,100,12.9,GL,1607127786
Calabozo,8.92,-67.43,298.45,78,66,1.87,VE,1607127786
Ţahţā,26.77,31.5,286.15,62,0,1.5,EG,1607127787
Beringovskiy,63.05,179.32,269.04,92,31,4.53,RU,1607127787
Pangnirtung,66.15,-65.71,270.15,63,90,6.7,CA,1607127787
Kysyl-Syr,63.9,122.76,251.35,90,100,3.01,RU,1607127788
Huarmey,-10.07,-78.15,292.81,81,90,3.54,PE,1607127788
Saint Anthony,45.02,-93.22,275.15,68,1,1.5,US,1607127788
Sokoni,-6.43,39.55,299.15,88,40,2.86,TZ,1607127788
Nouakchott,18.09,-15.98,295.15,68,98,5.7,MR,1607127785
Eureka,40.8,-124.16,285.93,87,75,0.12,US,1607127788
Bato,13.35,123.37,300.84,77,94,0.99,PH,1607127789
Gizo Government Station,-8.1,156.84,301.98,72,60,3.08,SB,1607127789
Atoyac,20.02,-103.53,291.15,68,75,3.1,MX,1607127789
Soyo,-6.13,12.37,298.89,89,57,2.66,AO,1607127790
Porto Nacional,-10.71,-48.42,297.15,88,20,2.1,BR,1607127790
La Reforma,25.08,-108.05,294.26,52,0,2.68,MX,1607127790
Ōhara,35.25,140.38,281.15,93,75,4.1,JP,1607127790
Ternate,0.8,127.4,301.5,76,33,2.53,ID,1607127791
Maniitsoq,65.42,-52.9,273.48,97,100,10.23,GL,1607127791
Kirensk,57.79,108.11,258.71,93,100,1.62,RU,1607127792
Algiers,36.75,3.04,285.15,93,75,4.6,DZ,1607127792
A Coruña,43.37,-8.4,283.71,93,40,2.1,ES,1607127792
Graham,47.05,-122.29,283.15,81,1,0.98,US,1607127792
Xinmin,41.99,122.83,265.15,67,0,2.0,CN,1607127793
Kiunga,-6.12,141.29,301.32,78,100,1.25,PG,1607127793
Lorengau,-2.02,147.27,302.89,67,59,2.89,PG,1607127794
Yasnogorsk,54.48,37.7,267.43,91,12,5.44,RU,1607127794
Yaan,7.38,8.57,298.7,55,0,2.01,NG,1607127794
Bara,10.37,10.73,295.05,22,31,2.41,NG,1607127794
Soma,39.19,27.61,281.15,93,40,1.16,TR,1607127795
Octeville,49.63,-1.64,279.82,100,0,3.6,FR,1607127795
Vila Velha,-20.33,-40.29,299.26,83,75,7.2,BR,1607127730
Esperance,-33.87,121.9,289.15,63,90,8.2,AU,1607127796
Ixtapa,20.7,-105.2,295.37,100,90,2.1,MX,1607127796
Poroshkovo,48.67,22.75,274.26,84,77,3.58,UA,1607127796
Soubre,5.79,-6.61,295.62,97,21,1.19,CI,1607127796
Jiexiu,37.02,111.91,268.18,79,0,0.02,CN,1607127797
Touros,-5.2,-35.46,299.15,83,40,2.1,BR,1607127798
Danielskuil,-28.19,23.54,289.4,60,81,2.97,ZA,1607127798
Kerchevskiy,59.95,56.29,258.13,92,20,1.12,RU,1607127798
Brownsville,25.9,-97.5,287.15,50,1,3.1,US,1607127535
San Antonio,29.42,-98.49,285.15,46,1,2.27,US,1607127684
Dongying,37.46,118.49,272.44,77,34,1.41,CN,1607127799
Angren,41.02,70.14,267.19,75,1,1.27,UZ,1607127799
Galveston,29.37,-94.97,285.93,66,1,3.03,US,1607127609
Bagdarin,54.43,113.6,256.82,87,86,1.1,RU,1607127800
Kemin,42.78,75.69,265.52,87,82,1.32,KG,1607127800
Mchinji,-13.8,32.88,293.11,85,100,0.83,MW,1607127800
Wattegama,6.8,81.48,298.15,100,20,3.1,LK,1607127801
Puerto del Rosario,28.5,-13.86,291.15,77,40,3.1,ES,1607127801
Lydenburg,-25.1,30.46,290.93,100,99,3.13,ZA,1607127614
Kavaratti,10.57,72.64,301.4,77,96,7.0,IN,1607127802
Dayong,25.02,118.29,288.15,54,75,3.0,CN,1607127803
Vanavara,60.34,102.28,249.98,88,0,1.88,RU,1607127803
Sokol,59.46,40.12,265.23,97,99,3.5,RU,1607127804
Yumen,40.28,97.2,263.79,94,72,1.43,CN,1607127804
Severo-Yeniseyskiy,60.37,93.04,250.74,91,15,1.79,RU,1607127804
Viļāni,56.55,26.92,276.19,88,100,5.27,LV,1607127805
Bolshaya Martynovka,47.27,41.67,269.77,86,8,6.9,RU,1607127805
Saposoa,-6.93,-76.77,303.15,62,75,5.1,PE,1607127805
San Cristobal,7.77,-72.22,299.15,78,40,2.1,VE,1607127703
Fairbanks,64.84,-147.72,253.15,76,20,1.0,US,1607127645
Kingman,35.19,-114.05,288.71,11,1,4.1,US,1607127542
Bam,29.11,58.36,286.71,47,64,3.23,IR,1607127806
Rio Tinto,41.18,-8.56,278.15,100,20,1.5,PT,1607127806
Nelson Bay,-32.72,152.15,299.82,73,75,4.1,AU,1607127806
Santo Antônio do Amparo,-20.95,-44.92,293.5,88,97,1.49,BR,1607127806
Paamiut,61.99,-49.67,274.79,86,100,11.49,GL,1607127806
Talnakh,69.49,88.4,271.15,100,90,11.0,RU,1607127802
Shakawe,-18.37,21.85,294.85,80,74,1.51,BW,1607127807
Zhengjiatun,43.51,123.51,260.46,91,0,3.18,CN,1607127808
Bonfim,3.08,-59.95,300.64,67,47,3.08,BR,1607127808
Puerto Baquerizo Moreno,-0.9,-89.6,294.94,84,96,3.98,EC,1607127808
Ankazoabo,-22.28,44.52,295.64,77,64,4.67,MG,1607127808
Puri,19.8,85.85,290.15,93,3,3.28,IN,1607127809
Esim,4.87,-2.24,299.27,84,2,3.24,GH,1607127809
Bemidji,47.47,-94.88,270.37,79,1,1.28,US,1607127810
Nome,64.5,-165.41,269.15,79,90,5.7,US,1607127810
Ilulissat,69.22,-51.1,275.15,64,100,4.1,GL,1607127810
Haapsalu,58.94,23.54,275.93,85,100,4.02,EE,1607127810
Port Hedland,-20.32,118.57,306.15,55,49,3.1,AU,1607127569
Moratuwa,6.77,79.88,298.15,94,40,1.5,LK,1607127546
Chara,56.91,118.26,253.64,77,65,1.54,RU,1607127811
Maun,-19.98,23.42,294.15,94,0,2.1,BW,1607127811
Taoudenni,22.68,-3.98,294.05,24,54,4.1,ML,1607127811
Nishihara,26.18,127.76,293.15,77,75,8.2,JP,1607127811
Dzaoudzi,-12.79,45.27,299.15,83,0,2.6,YT,1607127812
Kharp,66.8,65.81,260.99,92,13,3.99,RU,1607127812
